county,latitude,longitude,AQI,pollutant,category,color,distance_miles,updated
Albany,42.452299,-73.239648,55.0,PM2.5,Moderate,#ffff00,29.5,2026-07-17 12:12
Allegany,42.2244,-78.0334,,,No data,#e0e0e0,64.1,2026-07-17 12:12
Bronx,41.171398,-73.195297,60.0,PM2.5,Moderate,#ffff00,44.9,2026-07-17 12:12
Broome,41.867336,-75.686602,107.0,PM2.5,Unhealthy for Sensitive Groups,#ff7e00,19.8,2026-07-17 12:12
Cattaraugus,41.843722,-79.172889,196.0,PM2.5,Unhealthy,#ff0000,18.0,2026-07-17 12:12
Cayuga,42.9307,-76.5677,,,No data,#e0e0e0,84.7,2026-07-17 12:12
Chautauqua,41.843722,-79.172889,196.0,PM2.5,Unhealthy,#ff0000,18.0,2026-07-17 12:12
Chemung,41.705226,-76.512726,152.0,PM2.5,Unhealthy,#ff0000,30.8,2026-07-17 12:12
Chenango,41.867336,-75.686602,107.0,PM2.5,Unhealthy for Sensitive Groups,#ff7e00,21.5,2026-07-17 12:12
Clinton,44.6979,-73.4552,,,No data,#e0e0e0,139.0,2026-07-17 12:12
Columbia,42.452299,-73.239648,55.0,PM2.5,Moderate,#ffff00,31.3,2026-07-17 12:12
Cortland,41.867336,-75.686602,107.0,PM2.5,Unhealthy for Sensitive Groups,#ff7e00,58.9,2026-07-17 12:12
Delaware,41.867336,-75.686602,107.0,PM2.5,Unhealthy for Sensitive Groups,#ff7e00,48.5,2026-07-17 12:12
Dutchess,41.4014,-73.4447,64.0,PM2.5,Moderate,#ffff00,32.5,2026-07-17 12:12
Erie,42.8854,-78.8783,,,No data,#e0e0e0,73.5,2026-07-17 12:12
Essex,44.2897,-73.3506,,,No data,#e0e0e0,110.3,2026-07-17 12:12
Franklin,44.8514,-74.2931,,,No data,#e0e0e0,159.8,2026-07-17 12:12
Fulton,43.051,-74.3425,,,No data,#e0e0e0,66.9,2026-07-17 12:12
Genesee,42.7987,-77.8191,,,No data,#e0e0e0,91.6,2026-07-17 12:12
Greene,42.452299,-73.239648,55.0,PM2.5,Moderate,#ffff00,35.8,2026-07-17 12:12
Hamilton,42.702223,-73.110414,57.0,PM2.5,Moderate,#ffff00,35.9,2026-07-17 12:12
Herkimer,43.0268,-74.9897,,,No data,#e0e0e0,87.6,2026-07-17 12:12
Jefferson,43.9734,-75.9087,,,No data,#e0e0e0,145.9,2026-07-17 12:12
Kings,41.171398,-73.195297,60.0,PM2.5,Moderate,#ffff00,53.2,2026-07-17 12:12
Lewis,43.7875,-75.4873,,,No data,#e0e0e0,133.1,2026-07-17 12:12
Livingston,42.9085,-77.7476,,,No data,#e0e0e0,96.6,2026-07-17 12:12
Madison,42.9325,-75.8499,,,No data,#e0e0e0,74.1,2026-07-17 12:12
Monroe,43.1581,-77.6047,,,No data,#e0e0e0,109.9,2026-07-17 12:12
Montgomery,42.9759,-74.3617,,,No data,#e0e0e0,66.2,2026-07-17 12:12
Nassau,41.171398,-73.195297,60.0,PM2.5,Moderate,#ffff00,38.3,2026-07-17 12:12
New York,41.171398,-73.195297,60.0,PM2.5,Moderate,#ffff00,50.8,2026-07-17 12:12
Niagara,43.0948,-79.0535,,,No data,#e0e0e0,86.6,2026-07-17 12:12
Oneida,43.0981,-75.2264,,,No data,#e0e0e0,88.2,2026-07-17 12:12
Onondaga,43.0472,-76.1507,,,No data,#e0e0e0,84.9,2026-07-17 12:12
Ontario,42.8856,-77.278,,,No data,#e0e0e0,87.5,2026-07-17 12:12
Orange,41.4014,-73.4447,64.0,PM2.5,Moderate,#ffff00,41.1,2026-07-17 12:12
Orleans,42.9993,-76.9562,,,No data,#e0e0e0,92.2,2026-07-17 12:12
Oswego,43.4104,-76.6188,,,No data,#e0e0e0,116.7,2026-07-17 12:12
Otsego,42.6997,-74.9289,,,No data,#e0e0e0,69.3,2026-07-17 12:12
Putnam,41.4014,-73.4447,64.0,PM2.5,Moderate,#ffff00,7.2,2026-07-17 12:12
Queens,41.171398,-73.195297,60.0,PM2.5,Moderate,#ffff00,43.2,2026-07-17 12:12
Rensselaer,42.452299,-73.239648,55.0,PM2.5,Moderate,#ffff00,28.5,2026-07-17 12:12
Richmond,41.171398,-73.195297,60.0,PM2.5,Moderate,#ffff00,59.1,2026-07-17 12:12
Rockland,41.4014,-73.4447,64.0,PM2.5,Moderate,#ffff00,41.1,2026-07-17 12:12
St. Lawrence,44.9345,-74.8903,,,No data,#e0e0e0,177.9,2026-07-17 12:12
Saratoga,42.702223,-73.110414,57.0,PM2.5,Moderate,#ffff00,43.2,2026-07-17 12:12
Schoharie,42.452299,-73.239648,55.0,PM2.5,Moderate,#ffff00,49.3,2026-07-17 12:12
Schuyler,41.6447,-76.9392,97.0,PM2.5,Moderate,#ffff00,54.8,2026-07-17 12:12
Seneca,42.9115,-76.8008,,,No data,#e0e0e0,84.6,2026-07-17 12:12
Steuben,41.6447,-76.9392,97.0,PM2.5,Moderate,#ffff00,51.6,2026-07-17 12:12
Suffolk,41.171398,-73.195297,60.0,PM2.5,Moderate,#ffff00,21.9,2026-07-17 12:12
Sullivan,41.4428,-75.6231,128.0,PM2.5,Unhealthy for Sensitive Groups,#ff7e00,50.4,2026-07-17 12:12
Tioga,41.705226,-76.512726,152.0,PM2.5,Unhealthy,#ff0000,30.4,2026-07-17 12:12
Tompkins,41.705226,-76.512726,152.0,PM2.5,Unhealthy,#ff0000,50.9,2026-07-17 12:12
Ulster,41.833099,-73.303299,57.0,PM2.5,Moderate,#ffff00,37.2,2026-07-17 12:12
Warren,42.702223,-73.110414,57.0,PM2.5,Moderate,#ffff00,58.6,2026-07-17 12:12
Washington,42.702223,-73.110414,57.0,PM2.5,Moderate,#ffff00,49.1,2026-07-17 12:12
Wayne,42.9993,-76.9562,,,No data,#e0e0e0,92.2,2026-07-17 12:12
Westchester,41.4014,-73.4447,64.0,PM2.5,Moderate,#ffff00,30.4,2026-07-17 12:12
Wyoming,42.8411,-77.964,,,No data,#e0e0e0,92.5,2026-07-17 12:12
Yates,42.6629,-77.0527,,,No data,#e0e0e0,70.6,2026-07-17 12:12
